{
  "type": "FeatureCollection",
  "features": [
    {
      "type": "Feature",
      "properties": {
        "type": "pump",
        "id": 368988925,
        "name": "Place Caffe"
      },
      "geometry": {
        "type": "Point",
        "coordinates": [
          5.919604334736249, 45.56387984261352
        ]
      }
    },
      {
      "type": "Feature",
      "properties": {
        "type": "pump",
        "name": "Carrefour de la Trousse - Saint-Alban-Leysse",
        "danger": "pompe, pied d'atelier et de réparation libre service",
        "line": "4",
        "imgUrl": "https://rouelibre.net/wp-content/uploads/2026/03/REV4-PUMP-GC_151018_BD.jpg"
      },
      "geometry": {
        "type": "Point",
        "coordinates": [5.958520540629536, 45.57232149611286]
      }
    },
    {
      "type": "Feature",
      "properties": {
        "type": "pump",
        "name": "Palais de justice- Chambery",
        "danger": "pompe, pied d'atelier et de réparation libre service",
        "line": "1",
        "imgUrl": "https://rouelibre.net/wp-content/uploads/2026/03/REV4-PUMP-GC_151018_BD.jpg"
      },
      "geometry": {
        "type": "Point",
        "coordinates": [5.9190537664114515, 45.568702343798265]
      }
    },
      {
      "type": "Feature",
      "properties": {
        "type": "pump",
        "name": "Place du Forum",
        "danger": "pompe, pied d'atelier et de réparation libre service",
        "line": "3",
        "imgUrl": "https://rouelibre.net/wp-content/uploads/2026/03/REV-3-PUMP-Grand-Chambery-GC_151002_BD.jpg"
      },
      "geometry": {
        "type": "Point",
        "coordinates": [5.919125028764313, 45.5926445284596]
      }
    },
          {
      "type": "Feature",
      "properties": {
        "type": "pump",
        "name": "Espace culturel Jean Blanc - La Ravoire ",
        "danger": "pompe, pied d'atelier et de réparation libre service",
        "line": "5",
        "imgUrl": "https://rouelibre.net/wp-content/uploads/2026/03/REV5-PUM-Grand-Chambery-_151003_BD.jpg"
      },
      "geometry": {
        "type": "Point",
        "coordinates": [5.96437026730564, 45.55869001179104]
      }
    },
    {
      "type": "Feature",
      "properties": {
        "type": "pump",
        "name": "Pont de la Villette - La Ravoire ",
        "danger": "pompe, pied d'atelier et de réparation libre service",
        "line": "5",
        "imgUrl": "https://rouelibre.net/wp-content/uploads/2026/03/REV-5-PUMP-Grand-Chambery_151006_BD.jpg"
      },
      "geometry": {
        "type": "Point",
        "coordinates": [5.95419707205096, 45.554325597729985]
      }
    },
        {
      "type": "Feature",
      "properties": {
        "type": "pump",
        "name": "Place Ecole Louis Pergaud - La Motte Servolex ",
        "danger": "pompe, pied d'atelier et de réparation libre service",
        "line": "9",
        "imgUrl": "https://rouelibre.net/wp-content/uploads/2026/03/REV9-PUMP-phot-Grand-Chambery_151011_BD.jpg"
      },
      "geometry": {
        "type": "Point",
        "coordinates": [5.875999073919189, 45.59743733718423]
      }
    },
          {
      "type": "Feature",
      "properties": {
        "type": "pump",
        "name": "Place Paul Chevallier",
        "danger": "pompe, pied d'atelier et de réparation libre service",
        "line": "7",
        "imgUrl": "https://rouelibre.net/wp-content/uploads/2026/03/REV7-PUMP-IMG_2762.jpg"
      },
      "geometry": {
        "type": "Point",
        "coordinates": [5.934402182162927, 45.56603180501793]
      }
    },
    {
      "type": "Feature",
      "properties": {
        "type": "pump",
        "name": "Place Caffe",
        "danger": "pompe, pied d'atelier et de réparation libre service",
        "line": "8",
        "imgUrl": "https://rouelibre.net/wp-content/uploads/2026/03/REV8-IMG_2401r.jpg"
      },
      "geometry": {
        "type": "Point",
        "coordinates": [5.919604334736249, 45.56387984261352]
      }
    }
  ]
}