{
  "type": "FeatureCollection",
  "features": [
    {
      "type": "Feature",
      "properties": {
        "type": "pump",
        "id": 368988925,
        "name": "Place Caffe"
      },
      "geometry": {
        "type": "Point",
        "coordinates": [
          5.919604334736249, 45.56387984261352
        ]
      }
    },
      {
      "type": "Feature",
      "properties": {
        "type": "pump",
        "id": 368988921,
        "name": "Carrefour de la Trousse - Saint-Alban-Leysse"
      },
      "geometry": {
        "type": "Point",
        "coordinates": [5.958520540629536, 45.57232149611286]
      }
    },
    {
      "type": "Feature",
      "properties": {
        "type": "pump",
        "name": "Palais de justice- Chambery"
      },
      "geometry": {
        "type": "Point",
        "coordinates": [5.9190537664114515, 45.568702343798265]
      }
    },
      {
      "type": "Feature",
      "properties": {
        "type": "pump",
        "name": "Place du Forum"
      },
      "geometry": {
        "type": "Point",
        "coordinates": [5.919125028764313, 45.5926445284596]
      }
    },
          {
      "type": "Feature",
      "properties": {
        "type": "pump",
        "name": "Espace culturel Jean Blanc - La Ravoire "
      },
      "geometry": {
        "type": "Point",
        "coordinates": [5.96437026730564, 45.55869001179104]
      }
    },
    {
      "type": "Feature",
      "properties": {
        "type": "pump",
        "name": "Pont de la Villette - La Ravoire "
      },
      "geometry": {
        "type": "Point",
        "coordinates": [5.95419707205096, 45.554325597729985]
      }
    },
        {
      "type": "Feature",
      "properties": {
        "type": "pump",
        "name": "Place Ecole Louis Pergaud - La Motte Servolex "
      },
      "geometry": {
        "type": "Point",
        "coordinates": [5.875999073919189, 45.59743733718423]
      }
    },
          {
      "type": "Feature",
      "properties": {
        "type": "pump",
        "name": "Place Paul Chevallier"
      },
      "geometry": {
        "type": "Point",
        "coordinates": [5.934402182162927, 45.56603180501793]
      }
    },
    {
      "type": "Feature",
      "properties": {
        "type": "pump",
        "name": "Place Caffe"
      },
      "geometry": {
        "type": "Point",
        "coordinates": [5.919604334736249, 45.56387984261352]
      }
    }
  ]
}